[
 {
   "city": "市区町村名",
   "name": "会場の名前",
   "address": "会場の住所",
   "type": "検査の種類",
   "days": "実施曜日",
   "hours": "実施時間",
   "note": "備考欄"
 },
 {
   "city": "以下は全て架空です",
   "name": "以下は全て架空です",
   "address": "以下は全て架空です",
   "type": "以下は全て架空です",
   "days": "以下は全て架空です",
   "hours": "以下は全て架空です",
   "note": "以下は全て架空です"
 },
 {
   "city": "京都市右京区",
   "name": "CVSファーマシー太秦店",
   "address": "京都市右京区常盤〇〇町１",
   "type": "PCR検査 抗原定性検査",
   "days": "月～日",
   "hours": "10:00～18:00",
   "note": "・検査キット入荷待ちのため現在受付できません。"
 },
 {
   "city": "京都市上京区",
   "name": "ウォルグリーン京都西陣店",
   "address": "京都市上京区今出川通千本西入ル〇〇町２",
   "type": "PCR検査 抗原定性検査",
   "days": "月～金",
   "hours": "10:00～18:00",
   "note": "・土、日、祝日は休み"
 },
 {
   "city": "京都市北区",
   "name": "ライトエイド衣笠店",
   "address": "京都市北区平野〇〇町３",
   "type": "抗原定性検査",
   "days": "月～土",
   "hours": "24時間",
   "note": "・日、祝日は休み　・受検をご希望の方は事前にご連絡ください。TEL 075-123-◯◯◯◯"
 },
 {
   "city": "京都市左京区",
   "name": "dm松ヶ崎店",
   "address": "京都市左京区松ヶ崎〇〇町４",
   "type": "PCR検査 抗原定性検査",
   "days": "月～金",
   "hours": "10:00～12:00",
   "note": "・土、日、祝日は休み"
 },
 {
   "city": "京都市下京区",
   "name": "ロスマン京都駅前店",
   "address": "京都市下京区〇〇町５",
   "type": "PCR検査",
   "days": "月～金",
   "hours": "10:00～12:00",
   "note": "・土、日、祝日は休み"
 },
 {
   "city": "京都市中京区",
   "name": "ミュラー円町店",
   "address": "京都市中京区西ノ京〇〇町６",
   "type": "PCR検査",
   "days": "月～金",
   "hours": "10:00～15:00",
   "note": "・土、日、祝日は休み"
 },
 {
   "city": "京都市西京区",
   "name": "ブーツ桂店",
   "address": "京都市西京区桂〇〇町７",
   "type": "PCR検査 抗原定性検査",
   "days": "月～金",
   "hours": "10:00～17:00",
   "note": "・土、日、祝日は休み"
 },
 {
   "city": "京都市東山区",
   "name": "スーパードラッグ祇園店",
   "address": "京都市東山区〇〇町８",
   "type": "抗原定性検査",
   "days": "月～金",
   "hours": "10:00～17:00",
   "note": "・土、日、祝日は休み"
 },
 {
   "city": "京都市伏見区",
   "name": "テスコ薬局深草店",
   "address": "京都市伏見区深草〇〇町９",
   "type": "PCR検査 抗原定性検査",
   "days": "月～土",
   "hours": "10:00～17:00",
   "note": "・日、祝日は休み"
 },
 {
   "city": "京都市南区",
   "name": "アスダ薬局吉祥院店",
   "address": "京都市南区吉祥院〇〇町１０",
   "type": "PCR検査 抗原定性検査",
   "days": "月～金",
   "hours": "10:00～17:00",
   "note": "・土、日、祝日は休み"
 },
 {
   "city": "京都市山科区",
   "name": "ワトソンズ山科駅前店",
   "address": "京都市山科区安朱〇〇町１１",
   "type": "抗原定性検査",
   "days": "月～日",
   "hours": "10:00～18:00",
   "note": "・受検をご希望の方は事前にご連絡ください。TEL 075-123-◯◯◯◯"
 }
]